{
"type": "FeatureCollection",
"crs": { "type": "name", "properties": { "name": "urn:ogc:def:crs:OGC:1.3:CRS84" } },
"features": [
{ "type": "Feature", "properties": { "geoid": 831, "name": "Sylvan Lake", "pr": "Alberta", "area": "Alberta", "pop_2016": 15302, "pop_2011": 12797, "pop_chg": 19.6 }, "geometry": { "type": "Point", "coordinates": [ 6.24, 1.96 ] } },
{ "type": "Feature", "properties": { "geoid": 565, "name": "Wasaga Beach", "pr": "Ontario", "area": "Ontario", "pop_2016": 20675, "pop_2011": 17537, "pop_chg": 17.9 }, "geometry": { "type": "Point", "coordinates": [ 6.2, 1.79 ] } },
{ "type": "Feature", "properties": { "geoid": 820, "name": "Okotoks", "pr": "Alberta", "area": "Alberta", "pop_2016": 28881, "pop_2011": 24511, "pop_chg": 17.8 }, "geometry": { "type": "Point", "coordinates": [ 6.16, 1.78 ] } },
{ "type": "Feature", "properties": { "geoid": 605, "name": "Steinbach", "pr": "Manitoba", "area": "Prairies", "pop_2016": 15829, "pop_2011": 13524, "pop_chg": 17.0 }, "geometry": { "type": "Point", "coordinates": [ 6.12, 1.7 ] } },
{ "type": "Feature", "properties": { "geoid": 47840, "name": "Lloydminster (Saskatchewan part)", "pr": "Saskatchewan", "area": "Prairies", "pop_2016": 14938, "pop_2011": 12766, "pop_chg": 17.0 }, "geometry": { "type": "Point", "coordinates": [ 6.08, 1.7 ] } },
{ "type": "Feature", "properties": { "geoid": 825, "name": "Calgary", "pr": "Alberta", "area": "Alberta", "pop_2016": 1392609, "pop_2011": 1214839, "pop_chg": 14.6 }, "geometry": { "type": "Point", "coordinates": [ 6.04, 1.46 ] } },
{ "type": "Feature", "properties": { "geoid": 828, "name": "Canmore", "pr": "Alberta", "area": "Alberta", "pop_2016": 13992, "pop_2011": 12288, "pop_chg": 13.9 }, "geometry": { "type": "Point", "coordinates": [ 6.0, 1.39 ] } },
{ "type": "Feature", "properties": { "geoid": 835, "name": "Edmonton", "pr": "Alberta", "area": "Alberta", "pop_2016": 1321426, "pop_2011": 1159869, "pop_chg": 13.9 }, "geometry": { "type": "Point", "coordinates": [ 5.96, 1.39 ] } },
{ "type": "Feature", "properties": { "geoid": 934, "name": "Squamish", "pr": "British Columbia", "area": "British Columbia", "pop_2016": 19893, "pop_2011": 17479, "pop_chg": 13.8 }, "geometry": { "type": "Point", "coordinates": [ 5.92, 1.38 ] } },
{ "type": "Feature", "properties": { "geoid": 850, "name": "Grande Prairie", "pr": "Alberta", "area": "Alberta", "pop_2016": 63166, "pop_2011": 55655, "pop_chg": 13.5 }, "geometry": { "type": "Point", "coordinates": [ 5.88, 1.35 ] } },
{ "type": "Feature", "properties": { "geoid": 567, "name": "Collingwood", "pr": "Ontario", "area": "Ontario", "pop_2016": 21793, "pop_2011": 19241, "pop_chg": 13.3 }, "geometry": { "type": "Point", "coordinates": [ 5.84, 1.33 ] } },
{ "type": "Feature", "properties": { "geoid": 603, "name": "Winkler", "pr": "Manitoba", "area": "Prairies", "pop_2016": 30297, "pop_2011": 26838, "pop_chg": 12.9 }, "geometry": { "type": "Point", "coordinates": [ 5.8, 1.29 ] } },
{ "type": "Feature", "properties": { "geoid": 725, "name": "Saskatoon", "pr": "Saskatchewan", "area": "Prairies", "pop_2016": 295095, "pop_2011": 262215, "pop_chg": 12.5 }, "geometry": { "type": "Point", "coordinates": [ 5.76, 1.25 ] } },
{ "type": "Feature", "properties": { "geoid": 705, "name": "Regina", "pr": "Saskatchewan", "area": "Prairies", "pop_2016": 236481, "pop_2011": 211519, "pop_chg": 11.8 }, "geometry": { "type": "Point", "coordinates": [ 5.72, 1.18 ] } },
{ "type": "Feature", "properties": { "geoid": 826, "name": "Strathmore", "pr": "Alberta", "area": "Alberta", "pop_2016": 13756, "pop_2011": 12305, "pop_chg": 11.8 }, "geometry": { "type": "Point", "coordinates": [ 5.68, 1.18 ] } },
{ "type": "Feature", "properties": { "geoid": 832, "name": "Lacombe", "pr": "Alberta", "area": "Alberta", "pop_2016": 13057, "pop_2011": 11707, "pop_chg": 11.5 }, "geometry": { "type": "Point", "coordinates": [ 5.64, 1.15 ] } },
{ "type": "Feature", "properties": { "geoid": 830, "name": "Red Deer", "pr": "Alberta", "area": "Alberta", "pop_2016": 100418, "pop_2011": 90564, "pop_chg": 10.9 }, "geometry": { "type": "Point", "coordinates": [ 5.6, 1.09 ] } },
{ "type": "Feature", "properties": { "geoid": 810, "name": "Lethbridge", "pr": "Alberta", "area": "Alberta", "pop_2016": 117394, "pop_2011": 105999, "pop_chg": 10.8 }, "geometry": { "type": "Point", "coordinates": [ 5.56, 1.08 ] } },
{ "type": "Feature", "properties": { "geoid": 860, "name": "Wood Buffalo", "pr": "Alberta", "area": "Alberta", "pop_2016": 73320, "pop_2011": 66896, "pop_chg": 9.6 }, "geometry": { "type": "Point", "coordinates": [ 5.52, 0.96 ] } },
{ "type": "Feature", "properties": { "geoid": 437, "name": "Cowansville", "pr": "Quebec", "area": "Quebec", "pop_2016": 13656, "pop_2011": 12489, "pop_chg": 9.3 }, "geometry": { "type": "Point", "coordinates": [ 5.48, 0.93 ] } },
{ "type": "Feature", "properties": { "geoid": 48840, "name": "Lloydminster (Alberta part)", "pr": "Alberta", "area": "Alberta", "pop_2016": 19645, "pop_2011": 18032, "pop_chg": 8.9 }, "geometry": { "type": "Point", "coordinates": [ 5.44, 0.89 ] } },
{ "type": "Feature", "properties": { "geoid": 24502, "name": "Hawkesbury (Quebec part)", "pr": "Quebec", "area": "Quebec", "pop_2016": 1711, "pop_2011": 1577, "pop_chg": 8.5 }, "geometry": { "type": "Point", "coordinates": [ 5.4, 0.85 ] } },
{ "type": "Feature", "properties": { "geoid": 833, "name": "Camrose", "pr": "Alberta", "area": "Alberta", "pop_2016": 18742, "pop_2011": 17286, "pop_chg": 8.4 }, "geometry": { "type": "Point", "coordinates": [ 5.36, 0.84 ] } },
{ "type": "Feature", "properties": { "geoid": 915, "name": "Kelowna", "pr": "British Columbia", "area": "British Columbia", "pop_2016": 194882, "pop_2011": 179839, "pop_chg": 8.4 }, "geometry": { "type": "Point", "coordinates": [ 5.32, 0.84 ] } },
{ "type": "Feature", "properties": { "geoid": 990, "name": "Whitehorse", "pr": "Yukon", "area": "Territories", "pop_2016": 28225, "pop_2011": 26028, "pop_chg": 8.4 }, "geometry": { "type": "Point", "coordinates": [ 5.28, 0.84 ] } },
{ "type": "Feature", "properties": { "geoid": 544, "name": "Woodstock", "pr": "Ontario", "area": "Ontario", "pop_2016": 40902, "pop_2011": 37754, "pop_chg": 8.3 }, "geometry": { "type": "Point", "coordinates": [ 5.24, 0.83 ] } },
{ "type": "Feature", "properties": { "geoid": 845, "name": "Cold Lake", "pr": "Alberta", "area": "Alberta", "pop_2016": 14961, "pop_2011": 13839, "pop_chg": 8.1 }, "geometry": { "type": "Point", "coordinates": [ 5.2, 0.81 ] } },
{ "type": "Feature", "properties": { "geoid": 930, "name": "Chilliwack", "pr": "British Columbia", "area": "British Columbia", "pop_2016": 101512, "pop_2011": 93882, "pop_chg": 8.1 }, "geometry": { "type": "Point", "coordinates": [ 5.16, 0.81 ] } },
{ "type": "Feature", "properties": { "geoid": 509, "name": "Carleton Place", "pr": "Ontario", "area": "Ontario", "pop_2016": 31451, "pop_2011": 29180, "pop_chg": 7.8 }, "geometry": { "type": "Point", "coordinates": [ 5.12, 0.78 ] } },
{ "type": "Feature", "properties": { "geoid": 550, "name": "Guelph", "pr": "Ontario", "area": "Ontario", "pop_2016": 151984, "pop_2011": 141097, "pop_chg": 7.7 }, "geometry": { "type": "Point", "coordinates": [ 5.08, 0.77 ] } },
{ "type": "Feature", "properties": { "geoid": 977, "name": "Fort St. John", "pr": "British Columbia", "area": "British Columbia", "pop_2016": 28396, "pop_2011": 26380, "pop_chg": 7.6 }, "geometry": { "type": "Point", "coordinates": [ 5.04, 0.76 ] } },
{ "type": "Feature", "properties": { "geoid": 516, "name": "Petawawa", "pr": "Ontario", "area": "Ontario", "pop_2016": 17187, "pop_2011": 15988, "pop_chg": 7.5 }, "geometry": { "type": "Point", "coordinates": [ 5.0, 0.75 ] } },
{ "type": "Feature", "properties": { "geoid": 938, "name": "Nanaimo", "pr": "British Columbia", "area": "British Columbia", "pop_2016": 104936, "pop_2011": 98021, "pop_chg": 7.1 }, "geometry": { "type": "Point", "coordinates": [ 4.96, 0.71 ] } },
{ "type": "Feature", "properties": { "geoid": 935, "name": "Victoria", "pr": "British Columbia", "area": "British Columbia", "pop_2016": 367770, "pop_2011": 344580, "pop_chg": 6.7 }, "geometry": { "type": "Point", "coordinates": [ 4.92, 0.67 ] } },
{ "type": "Feature", "properties": { "geoid": 532, "name": "Oshawa", "pr": "Ontario", "area": "Ontario", "pop_2016": 379848, "pop_2011": 356177, "pop_chg": 6.6 }, "geometry": { "type": "Point", "coordinates": [ 4.88, 0.66 ] } },
{ "type": "Feature", "properties": { "geoid": 602, "name": "Winnipeg", "pr": "Manitoba", "area": "Prairies", "pop_2016": 778489, "pop_2011": 730018, "pop_chg": 6.6 }, "geometry": { "type": "Point", "coordinates": [ 4.84, 0.66 ] } },
{ "type": "Feature", "properties": { "geoid": 640, "name": "Thompson", "pr": "Manitoba", "area": "Prairies", "pop_2016": 13678, "pop_2011": 12829, "pop_chg": 6.6 }, "geometry": { "type": "Point", "coordinates": [ 4.8, 0.66 ] } },
{ "type": "Feature", "properties": { "geoid": 933, "name": "Vancouver", "pr": "British Columbia", "area": "British Columbia", "pop_2016": 2463431, "pop_2011": 2313328, "pop_chg": 6.5 }, "geometry": { "type": "Point", "coordinates": [ 4.76, 0.65 ] } },
{ "type": "Feature", "properties": { "geoid": 535, "name": "Toronto", "pr": "Ontario", "area": "Ontario", "pop_2016": 5928040, "pop_2011": 5583064, "pop_chg": 6.2 }, "geometry": { "type": "Point", "coordinates": [ 4.72, 0.62 ] } },
{ "type": "Feature", "properties": { "geoid": 932, "name": "Abbotsford - Mission", "pr": "British Columbia", "area": "British Columbia", "pop_2016": 180518, "pop_2011": 170191, "pop_chg": 6.1 }, "geometry": { "type": "Point", "coordinates": [ 4.68, 0.61 ] } },
{ "type": "Feature", "properties": { "geoid": 440, "name": "Victoriaville", "pr": "Quebec", "area": "Quebec", "pop_2016": 49151, "pop_2011": 46354, "pop_chg": 6.0 }, "geometry": { "type": "Point", "coordinates": [ 4.64, 0.6 ] } },
{ "type": "Feature", "properties": { "geoid": 35505, "name": "Ottawa - Gatineau (Ontario part)", "pr": "Ontario", "area": "Ontario", "pop_2016": 991726, "pop_2011": 936908, "pop_chg": 5.9 }, "geometry": { "type": "Point", "coordinates": [ 4.6, 0.59 ] } },
{ "type": "Feature", "properties": { "geoid": 105, "name": "Charlottetown", "pr": "Prince Edward Island", "area": "Maritimes", "pop_2016": 69325, "pop_2011": 65523, "pop_chg": 5.8 }, "geometry": { "type": "Point", "coordinates": [ 4.56, 0.58 ] } },
{ "type": "Feature", "properties": { "geoid": 610, "name": "Brandon", "pr": "Manitoba", "area": "Prairies", "pop_2016": 58003, "pop_2011": 54847, "pop_chg": 5.8 }, "geometry": { "type": "Point", "coordinates": [ 4.52, 0.58 ] } },
{ "type": "Feature", "properties": { "geoid": 720, "name": "Swift Current", "pr": "Saskatchewan", "area": "Prairies", "pop_2016": 18536, "pop_2011": 17535, "pop_chg": 5.7 }, "geometry": { "type": "Point", "coordinates": [ 4.48, 0.57 ] } },
{ "type": "Feature", "properties": { "geoid": 531, "name": "Centre Wellington", "pr": "Ontario", "area": "Ontario", "pop_2016": 28191, "pop_2011": 26693, "pop_chg": 5.6 }, "geometry": { "type": "Point", "coordinates": [ 4.44, 0.56 ] } },
{ "type": "Feature", "properties": { "geoid": 541, "name": "Kitchener - Cambridge - Waterloo", "pr": "Ontario", "area": "Ontario", "pop_2016": 523894, "pop_2011": 496383, "pop_chg": 5.5 }, "geometry": { "type": "Point", "coordinates": [ 4.4, 0.55 ] } },
{ "type": "Feature", "properties": { "geoid": 447, "name": "Drummondville", "pr": "Quebec", "area": "Quebec", "pop_2016": 96118, "pop_2011": 91222, "pop_chg": 5.4 }, "geometry": { "type": "Point", "coordinates": [ 4.36, 0.54 ] } },
{ "type": "Feature", "properties": { "geoid": 568, "name": "Barrie", "pr": "Ontario", "area": "Ontario", "pop_2016": 197059, "pop_2011": 187013, "pop_chg": 5.4 }, "geometry": { "type": "Point", "coordinates": [ 4.32, 0.54 ] } },
{ "type": "Feature", "properties": { "geoid": 456, "name": "Joliette", "pr": "Quebec", "area": "Quebec", "pop_2016": 49439, "pop_2011": 46932, "pop_chg": 5.3 }, "geometry": { "type": "Point", "coordinates": [ 4.28, 0.53 ] } },
{ "type": "Feature", "properties": { "geoid": 806, "name": "Brooks", "pr": "Alberta", "area": "Alberta", "pop_2016": 24662, "pop_2011": 23430, "pop_chg": 5.3 }, "geometry": { "type": "Point", "coordinates": [ 4.24, 0.53 ] } },
{ "type": "Feature", "properties": { "geoid": 423, "name": "Sainte-Marie", "pr": "Quebec", "area": "Quebec", "pop_2016": 13565, "pop_2011": 12889, "pop_chg": 5.2 }, "geometry": { "type": "Point", "coordinates": [ 4.2, 0.52 ] } },
{ "type": "Feature", "properties": { "geoid": 450, "name": "Granby", "pr": "Quebec", "area": "Quebec", "pop_2016": 85056, "pop_2011": 80863, "pop_chg": 5.2 }, "geometry": { "type": "Point", "coordinates": [ 4.16, 0.52 ] } },
{ "type": "Feature", "properties": { "geoid": 805, "name": "Medicine Hat", "pr": "Alberta", "area": "Alberta", "pop_2016": 76522, "pop_2011": 72807, "pop_chg": 5.1 }, "geometry": { "type": "Point", "coordinates": [ 4.12, 0.51 ] } },
{ "type": "Feature", "properties": { "geoid": 821, "name": "High River", "pr": "Alberta", "area": "Alberta", "pop_2016": 13584, "pop_2011": 12930, "pop_chg": 5.1 }, "geometry": { "type": "Point", "coordinates": [ 4.08, 0.51 ] } },
{ "type": "Feature", "properties": { "geoid": 925, "name": "Kamloops", "pr": "British Columbia", "area": "British Columbia", "pop_2016": 103811, "pop_2011": 98754, "pop_chg": 5.1 }, "geometry": { "type": "Point", "coordinates": [ 4.04, 0.51 ] } },
{ "type": "Feature", "properties": { "geoid": 975, "name": "Dawson Creek", "pr": "British Columbia", "area": "British Columbia", "pop_2016": 12178, "pop_2011": 11583, "pop_chg": 5.1 }, "geometry": { "type": "Point", "coordinates": [ 4.0, 0.51 ] } },
{ "type": "Feature", "properties": { "geoid": 452, "name": "Saint-Hyacinthe", "pr": "Quebec", "area": "Quebec", "pop_2016": 59614, "pop_2011": 56794, "pop_chg": 5.0 }, "geometry": { "type": "Point", "coordinates": [ 3.96, 0.5 ] } },
{ "type": "Feature", "properties": { "geoid": 527, "name": "Cobourg", "pr": "Ontario", "area": "Ontario", "pop_2016": 19440, "pop_2011": 18519, "pop_chg": 5.0 }, "geometry": { "type": "Point", "coordinates": [ 3.92, 0.5 ] } },
{ "type": "Feature", "properties": { "geoid": 533, "name": "Ingersoll", "pr": "Ontario", "area": "Ontario", "pop_2016": 12757, "pop_2011": 12146, "pop_chg": 5.0 }, "geometry": { "type": "Point", "coordinates": [ 3.88, 0.5 ] } },
{ "type": "Feature", "properties": { "geoid": 433, "name": "Sherbrooke", "pr": "Quebec", "area": "Quebec", "pop_2016": 212105, "pop_2011": 202261, "pop_chg": 4.9 }, "geometry": { "type": "Point", "coordinates": [ 3.84, 0.49 ] } },
{ "type": "Feature", "properties": { "geoid": 750, "name": "Estevan", "pr": "Saskatchewan", "area": "Prairies", "pop_2016": 13615, "pop_2011": 12973, "pop_chg": 4.9 }, "geometry": { "type": "Point", "coordinates": [ 3.8, 0.49 ] } },
{ "type": "Feature", "properties": { "geoid": 944, "name": "Campbell River", "pr": "British Columbia", "area": "British Columbia", "pop_2016": 37861, "pop_2011": 36096, "pop_chg": 4.9 }, "geometry": { "type": "Point", "coordinates": [ 3.76, 0.49 ] } },
{ "type": "Feature", "properties": { "geoid": 918, "name": "Vernon", "pr": "British Columbia", "area": "British Columbia", "pop_2016": 61334, "pop_2011": 58584, "pop_chg": 4.7 }, "geometry": { "type": "Point", "coordinates": [ 3.72, 0.47 ] } },
{ "type": "Feature", "properties": { "geoid": 1, "name": "St. John's", "pr": "Newfoundland and Labrador", "area": "Maritimes", "pop_2016": 205955, "pop_2011": 196954, "pop_chg": 4.6 }, "geometry": { "type": "Point", "coordinates": [ 3.68, 0.46 ] } },
{ "type": "Feature", "properties": { "geoid": 943, "name": "Courtenay", "pr": "British Columbia", "area": "British Columbia", "pop_2016": 54157, "pop_2011": 51787, "pop_chg": 4.6 }, "geometry": { "type": "Point", "coordinates": [ 3.64, 0.46 ] } },
{ "type": "Feature", "properties": { "geoid": 24505, "name": "Ottawa - Gatineau (Quebec part)", "pr": "Quebec", "area": "Quebec", "pop_2016": 332057, "pop_2011": 318011, "pop_chg": 4.4 }, "geometry": { "type": "Point", "coordinates": [ 3.6, 0.44 ] } },
{ "type": "Feature", "properties": { "geoid": 11, "name": "Gander", "pr": "Newfoundland and Labrador", "area": "Maritimes", "pop_2016": 13234, "pop_2011": 12683, "pop_chg": 4.3 }, "geometry": { "type": "Point", "coordinates": [ 3.56, 0.43 ] } },
{ "type": "Feature", "properties": { "geoid": 421, "name": "Quebec", "pr": "Quebec", "area": "Quebec", "pop_2016": 800296, "pop_2011": 767310, "pop_chg": 4.3 }, "geometry": { "type": "Point", "coordinates": [ 3.52, 0.43 ] } },
{ "type": "Feature", "properties": { "geoid": 428, "name": "Saint-Georges", "pr": "Quebec", "area": "Quebec", "pop_2016": 32513, "pop_2011": 31173, "pop_chg": 4.3 }, "geometry": { "type": "Point", "coordinates": [ 3.48, 0.43 ] } },
{ "type": "Feature", "properties": { "geoid": 462, "name": "Montreal", "pr": "Quebec", "area": "Quebec", "pop_2016": 4098927, "pop_2011": 3934078, "pop_chg": 4.2 }, "geometry": { "type": "Point", "coordinates": [ 3.44, 0.42 ] } },
{ "type": "Feature", "properties": { "geoid": 905, "name": "Cranbrook", "pr": "British Columbia", "area": "British Columbia", "pop_2016": 26083, "pop_2011": 25037, "pop_chg": 4.2 }, "geometry": { "type": "Point", "coordinates": [ 3.4, 0.42 ] } },
{ "type": "Feature", "properties": { "geoid": 555, "name": "London", "pr": "Ontario", "area": "Ontario", "pop_2016": 494069, "pop_2011": 474786, "pop_chg": 4.1 }, "geometry": { "type": "Point", "coordinates": [ 3.36, 0.41 ] } },
{ "type": "Feature", "properties": { "geoid": 735, "name": "North Battleford", "pr": "Saskatchewan", "area": "Prairies", "pop_2016": 19623, "pop_2011": 18850, "pop_chg": 4.1 }, "geometry": { "type": "Point", "coordinates": [ 3.32, 0.41 ] } },
{ "type": "Feature", "properties": { "geoid": 305, "name": "Moncton", "pr": "New Brunswick", "area": "Maritimes", "pop_2016": 144810, "pop_2011": 139287, "pop_chg": 4.0 }, "geometry": { "type": "Point", "coordinates": [ 3.28, 0.4 ] } },
{ "type": "Feature", "properties": { "geoid": 939, "name": "Parksville", "pr": "British Columbia", "area": "British Columbia", "pop_2016": 28922, "pop_2011": 27822, "pop_chg": 4.0 }, "geometry": { "type": "Point", "coordinates": [ 3.24, 0.4 ] } },
{ "type": "Feature", "properties": { "geoid": 537, "name": "Hamilton", "pr": "Ontario", "area": "Ontario", "pop_2016": 747545, "pop_2011": 721053, "pop_chg": 3.7 }, "geometry": { "type": "Point", "coordinates": [ 3.2, 0.37 ] } },
{ "type": "Feature", "properties": { "geoid": 546, "name": "Tillsonburg", "pr": "Ontario", "area": "Ontario", "pop_2016": 15872, "pop_2011": 15301, "pop_chg": 3.7 }, "geometry": { "type": "Point", "coordinates": [ 3.16, 0.37 ] } },
{ "type": "Feature", "properties": { "geoid": 710, "name": "Yorkton", "pr": "Saskatchewan", "area": "Prairies", "pop_2016": 18905, "pop_2011": 18238, "pop_chg": 3.7 }, "geometry": { "type": "Point", "coordinates": [ 3.12, 0.37 ] } },
{ "type": "Feature", "properties": { "geoid": 755, "name": "Weyburn", "pr": "Saskatchewan", "area": "Prairies", "pop_2016": 10870, "pop_2011": 10484, "pop_chg": 3.7 }, "geometry": { "type": "Point", "coordinates": [ 3.08, 0.37 ] } },
{ "type": "Feature", "properties": { "geoid": 320, "name": "Fredericton", "pr": "New Brunswick", "area": "Maritimes", "pop_2016": 101760, "pop_2011": 98320, "pop_chg": 3.5 }, "geometry": { "type": "Point", "coordinates": [ 3.04, 0.35 ] } },
{ "type": "Feature", "properties": { "geoid": 539, "name": "St. Catharines - Niagara", "pr": "Ontario", "area": "Ontario", "pop_2016": 406074, "pop_2011": 392184, "pop_chg": 3.5 }, "geometry": { "type": "Point", "coordinates": [ 3.0, 0.35 ] } },
{ "type": "Feature", "properties": { "geoid": 205, "name": "Halifax", "pr": "Nova Scotia", "area": "Maritimes", "pop_2016": 403390, "pop_2011": 390328, "pop_chg": 3.3 }, "geometry": { "type": "Point", "coordinates": [ 2.96, 0.33 ] } },
{ "type": "Feature", "properties": { "geoid": 528, "name": "Port Hope", "pr": "Ontario", "area": "Ontario", "pop_2016": 16753, "pop_2011": 16214, "pop_chg": 3.3 }, "geometry": { "type": "Point", "coordinates": [ 2.92, 0.33 ] } },
{ "type": "Feature", "properties": { "geoid": 10, "name": "Grand Falls-Windsor", "pr": "Newfoundland and Labrador", "area": "Maritimes", "pop_2016": 14171, "pop_2011": 13725, "pop_chg": 3.2 }, "geometry": { "type": "Point", "coordinates": [ 2.88, 0.32 ] } },
{ "type": "Feature", "properties": { "geoid": 485, "name": "Rouyn-Noranda", "pr": "Quebec", "area": "Quebec", "pop_2016": 42334, "pop_2011": 41012, "pop_chg": 3.2 }, "geometry": { "type": "Point", "coordinates": [ 2.84, 0.32 ] } },
{ "type": "Feature", "properties": { "geoid": 507, "name": "Arnprior", "pr": "Ontario", "area": "Ontario", "pop_2016": 15973, "pop_2011": 15485, "pop_chg": 3.2 }, "geometry": { "type": "Point", "coordinates": [ 2.8, 0.32 ] } },
{ "type": "Feature", "properties": { "geoid": 559, "name": "Windsor", "pr": "Ontario", "area": "Ontario", "pop_2016": 329144, "pop_2011": 319246, "pop_chg": 3.1 }, "geometry": { "type": "Point", "coordinates": [ 2.76, 0.31 ] } },
{ "type": "Feature", "properties": { "geoid": 404, "name": "Rimouski", "pr": "Quebec", "area": "Quebec", "pop_2016": 55349, "pop_2011": 53711, "pop_chg": 3.0 }, "geometry": { "type": "Point", "coordinates": [ 2.72, 0.3 ] } },
{ "type": "Feature", "properties": { "geoid": 530, "name": "Kawartha Lakes", "pr": "Ontario", "area": "Ontario", "pop_2016": 75423, "pop_2011": 73219, "pop_chg": 3.0 }, "geometry": { "type": "Point", "coordinates": [ 2.68, 0.3 ] } },
{ "type": "Feature", "properties": { "geoid": 442, "name": "Trois-Rivieres", "pr": "Quebec", "area": "Quebec", "pop_2016": 156042, "pop_2011": 151773, "pop_chg": 2.8 }, "geometry": { "type": "Point", "coordinates": [ 2.64, 0.28 ] } },
{ "type": "Feature", "properties": { "geoid": 937, "name": "Duncan", "pr": "British Columbia", "area": "British Columbia", "pop_2016": 44451, "pop_2011": 43252, "pop_chg": 2.8 }, "geometry": { "type": "Point", "coordinates": [ 2.6, 0.28 ] } },
{ "type": "Feature", "properties": { "geoid": 970, "name": "Prince George", "pr": "British Columbia", "area": "British Columbia", "pop_2016": 86622, "pop_2011": 84232, "pop_chg": 2.8 }, "geometry": { "type": "Point", "coordinates": [ 2.56, 0.28 ] } },
{ "type": "Feature", "properties": { "geoid": 468, "name": "Lachute", "pr": "Quebec", "area": "Quebec", "pop_2016": 12862, "pop_2011": 12551, "pop_chg": 2.5 }, "geometry": { "type": "Point", "coordinates": [ 2.52, 0.25 ] } },
{ "type": "Feature", "properties": { "geoid": 913, "name": "Penticton", "pr": "British Columbia", "area": "British Columbia", "pop_2016": 43432, "pop_2011": 42361, "pop_chg": 2.5 }, "geometry": { "type": "Point", "coordinates": [ 2.48, 0.25 ] } },
{ "type": "Feature", "properties": { "geoid": 607, "name": "Portage la Prairie", "pr": "Manitoba", "area": "Prairies", "pop_2016": 13304, "pop_2011": 12996, "pop_chg": 2.4 }, "geometry": { "type": "Point", "coordinates": [ 2.44, 0.24 ] } },
{ "type": "Feature", "properties": { "geoid": 529, "name": "Peterborough", "pr": "Ontario", "area": "Ontario", "pop_2016": 121721, "pop_2011": 118975, "pop_chg": 2.3 }, "geometry": { "type": "Point", "coordinates": [ 2.4, 0.23 ] } },
{ "type": "Feature", "properties": { "geoid": 5, "name": "Bay Roberts", "pr": "Newfoundland and Labrador", "area": "Maritimes", "pop_2016": 11083, "pop_2011": 10871, "pop_chg": 2.0 }, "geometry": { "type": "Point", "coordinates": [ 2.36, 0.2 ] } },
{ "type": "Feature", "properties": { "geoid": 569, "name": "Orillia", "pr": "Ontario", "area": "Ontario", "pop_2016": 31166, "pop_2011": 30586, "pop_chg": 1.9 }, "geometry": { "type": "Point", "coordinates": [ 2.32, 0.19 ] } },
{ "type": "Feature", "properties": { "geoid": 480, "name": "Val-d'Or", "pr": "Quebec", "area": "Quebec", "pop_2016": 33871, "pop_2011": 33265, "pop_chg": 1.8 }, "geometry": { "type": "Point", "coordinates": [ 2.28, 0.18 ] } },
{ "type": "Feature", "properties": { "geoid": 522, "name": "Belleville", "pr": "Ontario", "area": "Ontario", "pop_2016": 103472, "pop_2011": 101668, "pop_chg": 1.8 }, "geometry": { "type": "Point", "coordinates": [ 2.24, 0.18 ] } },
{ "type": "Feature", "properties": { "geoid": 553, "name": "Stratford", "pr": "Ontario", "area": "Ontario", "pop_2016": 31465, "pop_2011": 30903, "pop_chg": 1.8 }, "geometry": { "type": "Point", "coordinates": [ 2.2, 0.18 ] } },
{ "type": "Feature", "properties": { "geoid": 715, "name": "Moose Jaw", "pr": "Saskatchewan", "area": "Prairies", "pop_2016": 35053, "pop_2011": 34421, "pop_chg": 1.8 }, "geometry": { "type": "Point", "coordinates": [ 2.16, 0.18 ] } },
{ "type": "Feature", "properties": { "geoid": 907, "name": "Nelson", "pr": "British Columbia", "area": "British Columbia", "pop_2016": 18307, "pop_2011": 17987, "pop_chg": 1.8 }, "geometry": { "type": "Point", "coordinates": [ 2.12, 0.18 ] } },
{ "type": "Feature", "properties": { "geoid": 465, "name": "Salaberry-de-Valleyfield", "pr": "Quebec", "area": "Quebec", "pop_2016": 40745, "pop_2011": 40077, "pop_chg": 1.7 }, "geometry": { "type": "Point", "coordinates": [ 2.08, 0.17 ] } },
{ "type": "Feature", "properties": { "geoid": 995, "name": "Yellowknife", "pr": "Northwest Territories", "area": "Territories", "pop_2016": 19569, "pop_2011": 19234, "pop_chg": 1.7 }, "geometry": { "type": "Point", "coordinates": [ 2.04, 0.17 ] } },
{ "type": "Feature", "properties": { "geoid": 15, "name": "Corner Brook", "pr": "Newfoundland and Labrador", "area": "Maritimes", "pop_2016": 31917, "pop_2011": 31417, "pop_chg": 1.6 }, "geometry": { "type": "Point", "coordinates": [ 2.0, 0.16 ] } },
{ "type": "Feature", "properties": { "geoid": 408, "name": "Saguenay", "pr": "Quebec", "area": "Quebec", "pop_2016": 160980, "pop_2011": 158658, "pop_chg": 1.5 }, "geometry": { "type": "Point", "coordinates": [ 1.96, 0.15 ] } },
{ "type": "Feature", "properties": { "geoid": 547, "name": "Norfolk", "pr": "Ontario", "area": "Ontario", "pop_2016": 64044, "pop_2011": 63175, "pop_chg": 1.4 }, "geometry": { "type": "Point", "coordinates": [ 1.92, 0.14 ] } },
{ "type": "Feature", "properties": { "geoid": 501, "name": "Cornwall", "pr": "Ontario", "area": "Ontario", "pop_2016": 59699, "pop_2011": 58957, "pop_chg": 1.3 }, "geometry": { "type": "Point", "coordinates": [ 1.88, 0.13 ] } },
{ "type": "Feature", "properties": { "geoid": 571, "name": "Midland", "pr": "Ontario", "area": "Ontario", "pop_2016": 35859, "pop_2011": 35419, "pop_chg": 1.2 }, "geometry": { "type": "Point", "coordinates": [ 1.84, 0.12 ] } },
{ "type": "Feature", "properties": { "geoid": 920, "name": "Salmon Arm", "pr": "British Columbia", "area": "British Columbia", "pop_2016": 17904, "pop_2011": 17683, "pop_chg": 1.2 }, "geometry": { "type": "Point", "coordinates": [ 1.8, 0.12 ] } },
{ "type": "Feature", "properties": { "geoid": 745, "name": "Prince Albert", "pr": "Saskatchewan", "area": "Prairies", "pop_2016": 44160, "pop_2011": 43680, "pop_chg": 1.1 }, "geometry": { "type": "Point", "coordinates": [ 1.76, 0.11 ] } },
{ "type": "Feature", "properties": { "geoid": 521, "name": "Kingston", "pr": "Ontario", "area": "Ontario", "pop_2016": 161175, "pop_2011": 159561, "pop_chg": 1.0 }, "geometry": { "type": "Point", "coordinates": [ 1.72, 0.1 ] } },
{ "type": "Feature", "properties": { "geoid": 580, "name": "Greater Sudbury", "pr": "Ontario", "area": "Ontario", "pop_2016": 164689, "pop_2011": 163067, "pop_chg": 1.0 }, "geometry": { "type": "Point", "coordinates": [ 1.68, 0.1 ] } },
{ "type": "Feature", "properties": { "geoid": 865, "name": "Wetaskiwin", "pr": "Alberta", "area": "Alberta", "pop_2016": 12655, "pop_2011": 12525, "pop_chg": 1.0 }, "geometry": { "type": "Point", "coordinates": [ 1.64, 0.1 ] } },
{ "type": "Feature", "properties": { "geoid": 965, "name": "Terrace", "pr": "British Columbia", "area": "British Columbia", "pop_2016": 15723, "pop_2011": 15569, "pop_chg": 1.0 }, "geometry": { "type": "Point", "coordinates": [ 1.6, 0.1 ] } },
{ "type": "Feature", "properties": { "geoid": 110, "name": "Summerside", "pr": "Prince Edward Island", "area": "Maritimes", "pop_2016": 16587, "pop_2011": 16488, "pop_chg": 0.6 }, "geometry": { "type": "Point", "coordinates": [ 1.56, 0.06 ] } },
{ "type": "Feature", "properties": { "geoid": 945, "name": "Powell River", "pr": "British Columbia", "area": "British Columbia", "pop_2016": 16783, "pop_2011": 16689, "pop_chg": 0.6 }, "geometry": { "type": "Point", "coordinates": [ 1.52, 0.06 ] } },
{ "type": "Feature", "properties": { "geoid": 454, "name": "Sorel-Tracy", "pr": "Quebec", "area": "Quebec", "pop_2016": 41629, "pop_2011": 41520, "pop_chg": 0.3 }, "geometry": { "type": "Point", "coordinates": [ 1.48, 0.03 ] } },
{ "type": "Feature", "properties": { "geoid": 412, "name": "Sept-eles", "pr": "Quebec", "area": "Quebec", "pop_2016": 28534, "pop_2011": 28487, "pop_chg": 0.2 }, "geometry": { "type": "Point", "coordinates": [ 1.44, 0.02 ] } },
{ "type": "Feature", "properties": { "geoid": 595, "name": "Thunder Bay", "pr": "Ontario", "area": "Ontario", "pop_2016": 121621, "pop_2011": 121596, "pop_chg": 0.0 }, "geometry": { "type": "Point", "coordinates": [ 1.4, 0.0 ] } },
{ "type": "Feature", "properties": { "geoid": 215, "name": "Truro", "pr": "Nova Scotia", "area": "Maritimes", "pop_2016": 45753, "pop_2011": 45888, "pop_chg": -0.3 }, "geometry": { "type": "Point", "coordinates": [ 1.36, -0.03 ] } },
{ "type": "Feature", "properties": { "geoid": 405, "name": "Riviere-du-Loup", "pr": "Quebec", "area": "Quebec", "pop_2016": 28902, "pop_2011": 28987, "pop_chg": -0.3 }, "geometry": { "type": "Point", "coordinates": [ 1.32, -0.03 ] } },
{ "type": "Feature", "properties": { "geoid": 210, "name": "Kentville", "pr": "Nova Scotia", "area": "Maritimes", "pop_2016": 26222, "pop_2011": 26359, "pop_chg": -0.5 }, "geometry": { "type": "Point", "coordinates": [ 1.28, -0.05 ] } },
{ "type": "Feature", "properties": { "geoid": 410, "name": "Alma", "pr": "Quebec", "area": "Quebec", "pop_2016": 32849, "pop_2011": 33018, "pop_chg": -0.5 }, "geometry": { "type": "Point", "coordinates": [ 1.24, -0.05 ] } },
{ "type": "Feature", "properties": { "geoid": 444, "name": "Shawinigan", "pr": "Quebec", "area": "Quebec", "pop_2016": 54181, "pop_2011": 54489, "pop_chg": -0.6 }, "geometry": { "type": "Point", "coordinates": [ 1.2, -0.06 ] } },
{ "type": "Feature", "properties": { "geoid": 566, "name": "Owen Sound", "pr": "Ontario", "area": "Ontario", "pop_2016": 31820, "pop_2011": 32092, "pop_chg": -0.8 }, "geometry": { "type": "Point", "coordinates": [ 1.16, -0.08 ] } },
{ "type": "Feature", "properties": { "geoid": 411, "name": "Dolbeau-Mistassini", "pr": "Quebec", "area": "Quebec", "pop_2016": 15673, "pop_2011": 15826, "pop_chg": -1.0 }, "geometry": { "type": "Point", "coordinates": [ 1.12, -0.1 ] } },
{ "type": "Feature", "properties": { "geoid": 543, "name": "Brantford", "pr": "Ontario", "area": "Ontario", "pop_2016": 134203, "pop_2011": 135501, "pop_chg": -1.0 }, "geometry": { "type": "Point", "coordinates": [ 1.08, -0.1 ] } },
{ "type": "Feature", "properties": { "geoid": 562, "name": "Sarnia", "pr": "Ontario", "area": "Ontario", "pop_2016": 96151, "pop_2011": 97131, "pop_chg": -1.0 }, "geometry": { "type": "Point", "coordinates": [ 1.04, -0.1 ] } },
{ "type": "Feature", "properties": { "geoid": 335, "name": "Edmundston", "pr": "New Brunswick", "area": "Maritimes", "pop_2016": 23524, "pop_2011": 23819, "pop_chg": -1.2 }, "geometry": { "type": "Point", "coordinates": [ 1.0, -0.12 ] } },
{ "type": "Feature", "properties": { "geoid": 512, "name": "Brockville", "pr": "Ontario", "area": "Ontario", "pop_2016": 38553, "pop_2011": 39024, "pop_chg": -1.2 }, "geometry": { "type": "Point", "coordinates": [ 0.96, -0.12 ] } },
{ "type": "Feature", "properties": { "geoid": 557, "name": "Leamington", "pr": "Ontario", "area": "Ontario", "pop_2016": 49147, "pop_2011": 49765, "pop_chg": -1.2 }, "geometry": { "type": "Point", "coordinates": [ 0.92, -0.12 ] } },
{ "type": "Feature", "properties": { "geoid": 950, "name": "Williams Lake", "pr": "British Columbia", "area": "British Columbia", "pop_2016": 18277, "pop_2011": 18490, "pop_chg": -1.2 }, "geometry": { "type": "Point", "coordinates": [ 0.88, -0.12 ] } },
{ "type": "Feature", "properties": { "geoid": 940, "name": "Port Alberni", "pr": "British Columbia", "area": "British Columbia", "pop_2016": 25112, "pop_2011": 25465, "pop_chg": -1.4 }, "geometry": { "type": "Point", "coordinates": [ 0.84, -0.14 ] } },
{ "type": "Feature", "properties": { "geoid": 598, "name": "Kenora", "pr": "Ontario", "area": "Ontario", "pop_2016": 15096, "pop_2011": 15348, "pop_chg": -1.6 }, "geometry": { "type": "Point", "coordinates": [ 0.8, -0.16 ] } },
{ "type": "Feature", "properties": { "geoid": 430, "name": "Thetford Mines", "pr": "Quebec", "area": "Quebec", "pop_2016": 28448, "pop_2011": 28927, "pop_chg": -1.7 }, "geometry": { "type": "Point", "coordinates": [ 0.76, -0.17 ] } },
{ "type": "Feature", "properties": { "geoid": 952, "name": "Quesnel", "pr": "British Columbia", "area": "British Columbia", "pop_2016": 23146, "pop_2011": 23566, "pop_chg": -1.8 }, "geometry": { "type": "Point", "coordinates": [ 0.72, -0.18 ] } },
{ "type": "Feature", "properties": { "geoid": 556, "name": "Chatham-Kent", "pr": "Ontario", "area": "Ontario", "pop_2016": 102042, "pop_2011": 104075, "pop_chg": -2.0 }, "geometry": { "type": "Point", "coordinates": [ 0.68, -0.2 ] } },
{ "type": "Feature", "properties": { "geoid": 329, "name": "Miramichi", "pr": "New Brunswick", "area": "Maritimes", "pop_2016": 27523, "pop_2011": 28115, "pop_chg": -2.1 }, "geometry": { "type": "Point", "coordinates": [ 0.64, -0.21 ] } },
{ "type": "Feature", "properties": { "geoid": 590, "name": "Sault Ste. Marie", "pr": "Ontario", "area": "Ontario", "pop_2016": 78159, "pop_2011": 79800, "pop_chg": -2.1 }, "geometry": { "type": "Point", "coordinates": [ 0.6, -0.21 ] } },
{ "type": "Feature", "properties": { "geoid": 310, "name": "Saint John", "pr": "New Brunswick", "area": "Maritimes", "pop_2016": 126202, "pop_2011": 129057, "pop_chg": -2.2 }, "geometry": { "type": "Point", "coordinates": [ 0.56, -0.22 ] } },
{ "type": "Feature", "properties": { "geoid": 403, "name": "Matane", "pr": "Quebec", "area": "Quebec", "pop_2016": 17926, "pop_2011": 18368, "pop_chg": -2.4 }, "geometry": { "type": "Point", "coordinates": [ 0.52, -0.24 ] } },
{ "type": "Feature", "properties": { "geoid": 328, "name": "Bathurst", "pr": "New Brunswick", "area": "Maritimes", "pop_2016": 31110, "pop_2011": 31936, "pop_chg": -2.6 }, "geometry": { "type": "Point", "coordinates": [ 0.48, -0.26 ] } },
{ "type": "Feature", "properties": { "geoid": 575, "name": "North Bay", "pr": "Ontario", "area": "Ontario", "pop_2016": 70378, "pop_2011": 72241, "pop_chg": -2.6 }, "geometry": { "type": "Point", "coordinates": [ 0.44, -0.26 ] } },
{ "type": "Feature", "properties": { "geoid": 406, "name": "Baie-Comeau", "pr": "Quebec", "area": "Quebec", "pop_2016": 27692, "pop_2011": 28465, "pop_chg": -2.7 }, "geometry": { "type": "Point", "coordinates": [ 0.4, -0.27 ] } },
{ "type": "Feature", "properties": { "geoid": 35502, "name": "Hawkesbury (Ontario part)", "pr": "Ontario", "area": "Ontario", "pop_2016": 10263, "pop_2011": 10551, "pop_chg": -2.7 }, "geometry": { "type": "Point", "coordinates": [ 0.36, -0.27 ] } },
{ "type": "Feature", "properties": { "geoid": 955, "name": "Prince Rupert", "pr": "British Columbia", "area": "British Columbia", "pop_2016": 12687, "pop_2011": 13052, "pop_chg": -2.8 }, "geometry": { "type": "Point", "coordinates": [ 0.32, -0.28 ] } },
{ "type": "Feature", "properties": { "geoid": 225, "name": "Cape Breton", "pr": "Nova Scotia", "area": "Maritimes", "pop_2016": 98722, "pop_2011": 101619, "pop_chg": -2.9 }, "geometry": { "type": "Point", "coordinates": [ 0.28, -0.29 ] } },
{ "type": "Feature", "properties": { "geoid": 515, "name": "Pembroke", "pr": "Ontario", "area": "Ontario", "pop_2016": 23269, "pop_2011": 24017, "pop_chg": -3.1 }, "geometry": { "type": "Point", "coordinates": [ 0.24, -0.31 ] } },
{ "type": "Feature", "properties": { "geoid": 586, "name": "Timmins", "pr": "Ontario", "area": "Ontario", "pop_2016": 41788, "pop_2011": 43165, "pop_chg": -3.2 }, "geometry": { "type": "Point", "coordinates": [ 0.2, -0.32 ] } },
{ "type": "Feature", "properties": { "geoid": 220, "name": "New Glasgow", "pr": "Nova Scotia", "area": "Maritimes", "pop_2016": 34487, "pop_2011": 35809, "pop_chg": -3.7 }, "geometry": { "type": "Point", "coordinates": [ 0.16, -0.37 ] } },
{ "type": "Feature", "properties": { "geoid": 582, "name": "Elliot Lake", "pr": "Ontario", "area": "Ontario", "pop_2016": 10741, "pop_2011": 11348, "pop_chg": -5.3 }, "geometry": { "type": "Point", "coordinates": [ 0.12, -0.53 ] } },
{ "type": "Feature", "properties": { "geoid": 13330, "name": "Campbellton (New Brunswick part)", "pr": "New Brunswick", "area": "Maritimes", "pop_2016": 13114, "pop_2011": 14039, "pop_chg": -6.6 }, "geometry": { "type": "Point", "coordinates": [ 0.08, -0.66 ] } },
{ "type": "Feature", "properties": { "geoid": 24330, "name": "Campbellton (Quebec part)", "pr": "Quebec", "area": "Quebec", "pop_2016": 2632, "pop_2011": 3322, "pop_chg": -20.8 }, "geometry": { "type": "Point", "coordinates": [ 0.04, -2.08 ] } }
]
}
